[
  {
    "id": "evt-10359080",
    "discipline": "Road",
    "type": "Points Race",
    "name": "Cal Aggie Criterium",
    "date": "January 31st 2015",
    "distanceMi": 200,
    "durationMin": 86,
    "elevationGainFt": 528,
    "startTime": "9:00 AM",
    "promoter": "Central Sierra Cyclists",
    "location": {
      "streetAddress": "1968 Broadway",
      "city": "San Diego",
      "state": "CA",
      "zip": "910370"
    },
    "distanceToEventMi": 116,
    "estimatedTravelTime": "1h",
    "flyerUrl": "http://www.ncnca.org/sites/default/files/01/01/2014%20-%202%3A29am/183%20San%20Bruno%20Mountain%20Hill%20Climb%20OKED%203.pdf",
    "registrationUrl": "https://www.usacycling.org/register/2014-183"
  },
  {
    "id": "evt-101233046",
    "discipline": "MTB",
    "type": "Dual Slalom",
    "name": "John C. Schlesinger Memorial Circuit Race and Team Time Trial",
    "date": "February 7th 2015",
    "distanceMi": 117,
    "durationMin": 54,
    "elevationGainFt": 1214,
    "startTime": "10:15 AM",
    "promoter": "China Peak Mountain Resort",
    "location": {
      "streetAddress": "1956 The Embarcadero",
      "city": "Salinas",
      "state": "CA",
      "zip": "94337"
    },
    "distanceToEventMi": 6,
    "estimatedTravelTime": "5h",
    "flyerUrl": "http://www.ncnca.org/sites/default/files/01/01/2014%20-%202%3A29am/183%20San%20Bruno%20Mountain%20Hill%20Climb%20OKED%203.pdf",
    "registrationUrl": "https://www.usacycling.org/register/2014-183"
  },
  {
    "id": "evt-65870645",
    "discipline": "Road",
    "type": "Individual Pursuit",
    "name": "RED KITE OMNIUM EVENT #1 - THE BUMP CIRCUIT RACE (WINTER)",
    "date": "February 8th 2015",
    "distanceMi": 160,
    "durationMin": 58,
    "elevationGainFt": 536,
    "startTime": "1:00 PM",
    "promoter": "Back of Nowhere Enterprises",
    "location": {
      "streetAddress": "756 Third Street",
      "city": "San Juan Bautista",
      "state": "CA",
      "zip": "93681"
    },
    "distanceToEventMi": 159,
    "estimatedTravelTime": "4h",
    "flyerUrl": "http://www.ncnca.org/sites/default/files/01/01/2014%20-%202%3A29am/183%20San%20Bruno%20Mountain%20Hill%20Climb%20OKED%203.pdf",
    "registrationUrl": "https://www.usacycling.org/register/2014-183"
  },
  {
    "id": "evt-89193875",
    "discipline": "MTB",
    "type": "Short Track Cross Country",
    "name": "Christopher Castro Memorial Road Race ",
    "date": "February 8th 2015",
    "distanceMi": 112,
    "durationMin": 82,
    "elevationGainFt": 1524,
    "startTime": "1:00 PM",
    "promoter": "Bike Station Aptos",
    "location": {
      "streetAddress": "698 Third Street",
      "city": "San Fernando",
      "state": "CA",
      "zip": "98050"
    },
    "distanceToEventMi": 24,
    "estimatedTravelTime": "2h",
    "flyerUrl": "http://www.ncnca.org/sites/default/files/01/01/2014%20-%202%3A29am/183%20San%20Bruno%20Mountain%20Hill%20Climb%20OKED%203.pdf",
    "registrationUrl": "https://www.usacycling.org/register/2014-183"
  },
  {
    "id": "evt-26431491",
    "discipline": "Clinic",
    "type": "Downhill",
    "name": "Folsom Winter Criterium",
    "date": "February 14th 2015",
    "distanceMi": 102,
    "durationMin": 54,
    "elevationGainFt": 367,
    "startTime": "12:03 PM",
    "promoter": "Berkeley Bicycle Club",
    "location": {
      "streetAddress": "954 New Montgomery Street",
      "city": "San Dimas",
      "state": "CA",
      "zip": "98868"
    },
    "distanceToEventMi": 186,
    "estimatedTravelTime": "5h",
    "flyerUrl": "http://www.ncnca.org/sites/default/files/01/01/2014%20-%202%3A29am/183%20San%20Bruno%20Mountain%20Hill%20Climb%20OKED%203.pdf",
    "registrationUrl": "https://www.usacycling.org/register/2014-183"
  },
  {
    "id": "evt-99582656",
    "discipline": "MTB",
    "type": "Road Race",
    "name": "Pine Flat Road Race",
    "date": "February 15th 2015",
    "distanceMi": 2,
    "durationMin": 6,
    "elevationGainFt": 1067,
    "startTime": "12:03 PM",
    "promoter": "Brian Joder",
    "location": {
      "streetAddress": "1011 Skyline Boulevard",
      "city": "St. Helena",
      "state": "CA",
      "zip": "91256"
    },
    "distanceToEventMi": 147,
    "estimatedTravelTime": "3h",
    "flyerUrl": "http://www.ncnca.org/sites/default/files/01/01/2014%20-%202%3A29am/183%20San%20Bruno%20Mountain%20Hill%20Climb%20OKED%203.pdf",
    "registrationUrl": "https://www.usacycling.org/register/2014-183"
  },
  {
    "id": "evt-54816344",
    "discipline": "Track",
    "type": "Road Race",
    "name": "Dinuba Criterium",
    "date": "February 16th 2015",
    "distanceMi": 141,
    "durationMin": 163,
    "elevationGainFt": 1847,
    "startTime": "10:00 AM",
    "promoter": "Cal Aggie Cycling",
    "location": {
      "streetAddress": "381 Stockton Street",
      "city": "San Gabriel",
      "state": "CA",
      "zip": "93578"
    },
    "distanceToEventMi": 184,
    "estimatedTravelTime": "1h",
    "flyerUrl": "http://www.ncnca.org/sites/default/files/01/01/2014%20-%202%3A29am/183%20San%20Bruno%20Mountain%20Hill%20Climb%20OKED%203.pdf",
    "registrationUrl": "https://www.usacycling.org/register/2014-183"
  },
  {
    "id": "evt-31495806",
    "discipline": "Road",
    "type": "Criterium",
    "name": "Snelling Road Race",
    "date": "February 21st 2015",
    "distanceMi": 64,
    "durationMin": 107,
    "elevationGainFt": 831,
    "startTime": "9:00 AM",
    "promoter": "China Peak Mountain Resort",
    "location": {
      "streetAddress": "1579 Skyline Boulevard",
      "city": "San Joaquin",
      "state": "CA",
      "zip": "94880"
    },
    "distanceToEventMi": 73,
    "estimatedTravelTime": "4h",
    "flyerUrl": "http://www.ncnca.org/sites/default/files/01/01/2014%20-%202%3A29am/183%20San%20Bruno%20Mountain%20Hill%20Climb%20OKED%203.pdf",
    "registrationUrl": "https://www.usacycling.org/register/2014-183"
  },
  {
    "id": "evt-27632468",
    "discipline": "Road",
    "type": "Cross Country",
    "name": "UC Santa Cruz Slugapalooza",
    "date": "February 21st 2015",
    "distanceMi": 200,
    "durationMin": 102,
    "elevationGainFt": 1023,
    "startTime": "1:00 PM",
    "promoter": "Bike Monkey",
    "location": {
      "streetAddress": "1408 Filbert Street",
      "city": "San Clemente",
      "state": "CA",
      "zip": "92930"
    },
    "distanceToEventMi": 146,
    "estimatedTravelTime": "2h",
    "flyerUrl": "http://www.ncnca.org/sites/default/files/01/01/2014%20-%202%3A29am/183%20San%20Bruno%20Mountain%20Hill%20Climb%20OKED%203.pdf",
    "registrationUrl": "https://www.usacycling.org/register/2014-183"
  },
  {
    "id": "evt-27660688",
    "discipline": "MTB",
    "type": "Criterium",
    "name": "Original Merced Criterium",
    "date": "February 22nd 2015",
    "distanceMi": 63,
    "durationMin": 83,
    "elevationGainFt": 984,
    "startTime": "2:18 PM",
    "promoter": "AntiGravity Cycling",
    "location": {
      "streetAddress": "1314 Polk Street",
      "city": "San Gabriel",
      "state": "CA",
      "zip": "99527"
    },
    "distanceToEventMi": 135,
    "estimatedTravelTime": "2h",
    "flyerUrl": "http://www.ncnca.org/sites/default/files/01/01/2014%20-%202%3A29am/183%20San%20Bruno%20Mountain%20Hill%20Climb%20OKED%203.pdf",
    "registrationUrl": "https://www.usacycling.org/register/2014-183"
  },
  {
    "id": "evt-63499553",
    "discipline": "Clinic",
    "type": "Sprint",
    "name": "Chico Stage Race p/b Sierra Nevada Brewing Co.",
    "date": "February 27th 2015",
    "distanceMi": 58,
    "durationMin": 123,
    "elevationGainFt": 1562,
    "startTime": "2:00 PM",
    "promoter": "CCCX (Central Coast Cyclocross)",
    "location": {
      "streetAddress": "462 New Montgomery Street",
      "city": "San Carlos",
      "state": "CA",
      "zip": "96849"
    },
    "distanceToEventMi": 92,
    "estimatedTravelTime": "5h",
    "flyerUrl": "http://www.ncnca.org/sites/default/files/01/01/2014%20-%202%3A29am/183%20San%20Bruno%20Mountain%20Hill%20Climb%20OKED%203.pdf",
    "registrationUrl": "https://www.usacycling.org/register/2014-183"
  },
  {
    "id": "evt-78324361",
    "discipline": "MTB",
    "type": "Cross Country",
    "name": "Madera County Stage Race",
    "date": "March 6th 2015",
    "distanceMi": 48,
    "durationMin": 70,
    "elevationGainFt": 352,
    "startTime": "1:55 PM",
    "promoter": "Brian Joder",
    "location": {
      "streetAddress": "1265 49-Mile Scenic Drive",
      "city": "San Dimas",
      "state": "CA",
      "zip": "95230"
    },
    "distanceToEventMi": 72,
    "estimatedTravelTime": "5h",
    "flyerUrl": "http://www.ncnca.org/sites/default/files/01/01/2014%20-%202%3A29am/183%20San%20Bruno%20Mountain%20Hill%20Climb%20OKED%203.pdf",
    "registrationUrl": "https://www.usacycling.org/register/2014-183"
  },
  {
    "id": "evt-47955389",
    "discipline": "MTB",
    "type": "Super D",
    "name": "RED KITE OMNIUM EVENT #2 - RED KITE CRITERIUM (MARCH)",
    "date": "March 8th 2015",
    "distanceMi": 128,
    "durationMin": 140,
    "elevationGainFt": 969,
    "startTime": "11:40 AM",
    "promoter": "Back of Nowhere Enterprises",
    "location": {
      "streetAddress": "1573 The Embarcadero",
      "city": "San Jacinto",
      "state": "CA",
      "zip": "97908"
    },
    "distanceToEventMi": 115,
    "estimatedTravelTime": "5h",
    "flyerUrl": "http://www.ncnca.org/sites/default/files/01/01/2014%20-%202%3A29am/183%20San%20Bruno%20Mountain%20Hill%20Climb%20OKED%203.pdf",
    "registrationUrl": "https://www.usacycling.org/register/2014-183"
  },
  {
    "id": "evt-64928079",
    "discipline": "Track",
    "type": "Cross Country",
    "name": "Wards Ferry Road Race",
    "date": "March 14th 2015",
    "distanceMi": 153,
    "durationMin": 184,
    "elevationGainFt": 372,
    "startTime": "11:40 AM",
    "promoter": "2 Wheel Racing",
    "location": {
      "streetAddress": "1658 Skyline Boulevard",
      "city": "San Fernando",
      "state": "CA",
      "zip": "98712"
    },
    "distanceToEventMi": 66,
    "estimatedTravelTime": "5h",
    "flyerUrl": "http://www.ncnca.org/sites/default/files/01/01/2014%20-%202%3A29am/183%20San%20Bruno%20Mountain%20Hill%20Climb%20OKED%203.pdf",
    "registrationUrl": "https://www.usacycling.org/register/2014-183"
  },
  {
    "id": "evt-79211103",
    "discipline": "Track",
    "type": "Individual Pursuit",
    "name": "UC Merced Race Weekend",
    "date": "March 21st 2015",
    "distanceMi": 92,
    "durationMin": 76,
    "elevationGainFt": 569,
    "startTime": "11:40 AM",
    "promoter": "Bike Station Aptos",
    "location": {
      "streetAddress": "743 The Embarcadero",
      "city": "San Jacinto",
      "state": "CA",
      "zip": "93582"
    },
    "distanceToEventMi": 28,
    "estimatedTravelTime": "2h",
    "flyerUrl": "http://www.ncnca.org/sites/default/files/01/01/2014%20-%202%3A29am/183%20San%20Bruno%20Mountain%20Hill%20Climb%20OKED%203.pdf",
    "registrationUrl": "https://www.usacycling.org/register/2014-183"
  },
  {
    "id": "evt-107300063",
    "discipline": "Road",
    "type": "Time Trial",
    "name": "RED KITE OMNIUM EVENT #3 - TEMPUS FUGIT INDIVIDUAL TIME TRIAL (SP",
    "date": "March 22nd 2015",
    "distanceMi": 53,
    "durationMin": 24,
    "elevationGainFt": 1922,
    "startTime": "12:00 PM",
    "promoter": "Alto Velo",
    "location": {
      "streetAddress": "1408 49-Mile Scenic Drive",
      "city": "San Juan Bautista",
      "state": "CA",
      "zip": "91329"
    },
    "distanceToEventMi": 23,
    "estimatedTravelTime": "4h",
    "flyerUrl": "http://www.ncnca.org/sites/default/files/01/01/2014%20-%202%3A29am/183%20San%20Bruno%20Mountain%20Hill%20Climb%20OKED%203.pdf",
    "registrationUrl": "https://www.usacycling.org/register/2014-183"
  },
  {
    "id": "evt-74487442",
    "discipline": "Cyclocross",
    "type": "Super D",
    "name": "Chowcilla Criterium",
    "date": "March 22nd 2015",
    "distanceMi": 76,
    "durationMin": 112,
    "elevationGainFt": 598,
    "startTime": "2:18 PM",
    "promoter": "2 Wheel Racing",
    "location": {
      "streetAddress": "72 Polk Street",
      "city": "San Leandro",
      "state": "CA",
      "zip": "94830"
    },
    "distanceToEventMi": 183,
    "estimatedTravelTime": "3h",
    "flyerUrl": "http://www.ncnca.org/sites/default/files/01/01/2014%20-%202%3A29am/183%20San%20Bruno%20Mountain%20Hill%20Climb%20OKED%203.pdf",
    "registrationUrl": "https://www.usacycling.org/register/2014-183"
  },
  {
    "id": "evt-45765529",
    "discipline": "Track",
    "type": "Criterium",
    "name": "Fresno State Road Race Weekend",
    "date": "March 28th 2015",
    "distanceMi": 23,
    "durationMin": 7,
    "elevationGainFt": 1210,
    "startTime": "10:15 AM",
    "promoter": "Bicycle Planet",
    "location": {
      "streetAddress": "1861 Howard Street",
      "city": "San Joaquin",
      "state": "CA",
      "zip": "99954"
    },
    "distanceToEventMi": 188,
    "estimatedTravelTime": "3h",
    "flyerUrl": "http://www.ncnca.org/sites/default/files/01/01/2014%20-%202%3A29am/183%20San%20Bruno%20Mountain%20Hill%20Climb%20OKED%203.pdf",
    "registrationUrl": "https://www.usacycling.org/register/2014-183"
  },
  {
    "id": "evt-67306882",
    "discipline": "Track",
    "type": "Super D",
    "name": "Turlock lake Road Race",
    "date": "March 28th 2015",
    "distanceMi": 24,
    "durationMin": 27,
    "elevationGainFt": 996,
    "startTime": "2:18 PM",
    "promoter": "Cal Aggie Cycling",
    "location": {
      "streetAddress": "609 Stockton Street",
      "city": "St. Helena",
      "state": "CA",
      "zip": "97338"
    },
    "distanceToEventMi": 45,
    "estimatedTravelTime": "5h",
    "flyerUrl": "http://www.ncnca.org/sites/default/files/01/01/2014%20-%202%3A29am/183%20San%20Bruno%20Mountain%20Hill%20Climb%20OKED%203.pdf",
    "registrationUrl": "https://www.usacycling.org/register/2014-183"
  },
  {
    "id": "evt-87396491",
    "discipline": "Road",
    "type": "Short Track Cross Country",
    "name": "Santa Cruz Classic Criterium",
    "date": "March 29th 2015",
    "distanceMi": 146,
    "durationMin": 133,
    "elevationGainFt": 1896,
    "startTime": "8:30 AM",
    "promoter": "California Giant Cycling Team",
    "location": {
      "streetAddress": "650 Great Highway",
      "city": "San Anselmo",
      "state": "CA",
      "zip": "99812"
    },
    "distanceToEventMi": 157,
    "estimatedTravelTime": "5h",
    "flyerUrl": "http://www.ncnca.org/sites/default/files/01/01/2014%20-%202%3A29am/183%20San%20Bruno%20Mountain%20Hill%20Climb%20OKED%203.pdf",
    "registrationUrl": "https://www.usacycling.org/register/2014-183"
  },
  {
    "id": "evt-22045878",
    "discipline": "Road",
    "type": "Cross Country",
    "name": "Copperopolis Road Race",
    "date": "April 4th 2015",
    "distanceMi": 98,
    "durationMin": 33,
    "elevationGainFt": 355,
    "startTime": "1:00 PM",
    "promoter": "Bicycles Plus",
    "location": {
      "streetAddress": "1829 Howard Street",
      "city": "Salinas",
      "state": "CA",
      "zip": "91712"
    },
    "distanceToEventMi": 176,
    "estimatedTravelTime": "3h",
    "flyerUrl": "http://www.ncnca.org/sites/default/files/01/01/2014%20-%202%3A29am/183%20San%20Bruno%20Mountain%20Hill%20Climb%20OKED%203.pdf",
    "registrationUrl": "https://www.usacycling.org/register/2014-183"
  },
  {
    "id": "evt-12320104",
    "discipline": "Clinic",
    "type": "Cross Country Marathon",
    "name": "RED KITE OMNIUM EVENT #4 - RED KITE CRITERIUM (APRIL)",
    "date": "April 19th 2015",
    "distanceMi": 40,
    "durationMin": 33,
    "elevationGainFt": 1126,
    "startTime": "12:00 PM",
    "promoter": "Cal Cycling",
    "location": {
      "streetAddress": "396 Octavia Boulevard",
      "city": "San Jose",
      "state": "CA",
      "zip": "94975"
    },
    "distanceToEventMi": 128,
    "estimatedTravelTime": "3h",
    "flyerUrl": "http://www.ncnca.org/sites/default/files/01/01/2014%20-%202%3A29am/183%20San%20Bruno%20Mountain%20Hill%20Climb%20OKED%203.pdf",
    "registrationUrl": "https://www.usacycling.org/register/2014-183"
  },
  {
    "id": "evt-88847915",
    "discipline": "Road",
    "type": "Dual Slalom",
    "name": "WCCC Championships p/b Cal Cycling",
    "date": "April 25th 2015",
    "distanceMi": 180,
    "durationMin": 68,
    "elevationGainFt": 166,
    "startTime": "2:00 PM",
    "promoter": "Bike Station Aptos",
    "location": {
      "streetAddress": "695 Filbert Street",
      "city": "San Joaquin",
      "state": "CA",
      "zip": "95724"
    },
    "distanceToEventMi": 100,
    "estimatedTravelTime": "5h",
    "flyerUrl": "http://www.ncnca.org/sites/default/files/01/01/2014%20-%202%3A29am/183%20San%20Bruno%20Mountain%20Hill%20Climb%20OKED%203.pdf",
    "registrationUrl": "https://www.usacycling.org/register/2014-183"
  },
  {
    "id": "evt-40707020",
    "discipline": "Cyclocross",
    "type": "Time Trial",
    "name": "Clovis Hills Criterium",
    "date": "April 25th 2015",
    "distanceMi": 119,
    "durationMin": 95,
    "elevationGainFt": 1367,
    "startTime": "8:00 AM",
    "promoter": "Alta Alpina Cycling Club",
    "location": {
      "streetAddress": "487 Alemany Boulevard",
      "city": "Sacramento",
      "state": "CA",
      "zip": "97112"
    },
    "distanceToEventMi": 121,
    "estimatedTravelTime": "3h",
    "flyerUrl": "http://www.ncnca.org/sites/default/files/01/01/2014%20-%202%3A29am/183%20San%20Bruno%20Mountain%20Hill%20Climb%20OKED%203.pdf",
    "registrationUrl": "https://www.usacycling.org/register/2014-183"
  },
  {
    "id": "evt-21205456",
    "discipline": "MTB",
    "type": "Points Race",
    "name": "Budweiser Sequoia Cycling Classic",
    "date": "April 26th 2015",
    "distanceMi": 195,
    "durationMin": 139,
    "elevationGainFt": 1019,
    "startTime": "11:40 AM",
    "promoter": "Berkeley Bicycle Club",
    "location": {
      "streetAddress": "257 22nd Street",
      "city": "San Clemente",
      "state": "CA",
      "zip": "93976"
    },
    "distanceToEventMi": 51,
    "estimatedTravelTime": "1h",
    "flyerUrl": "http://www.ncnca.org/sites/default/files/01/01/2014%20-%202%3A29am/183%20San%20Bruno%20Mountain%20Hill%20Climb%20OKED%203.pdf",
    "registrationUrl": "https://www.usacycling.org/register/2014-183"
  },
  {
    "id": "evt-75836998",
    "discipline": "Clinic",
    "type": "Cross Country",
    "name": "Wente Vineyards Classic Road Race",
    "date": "April 26th 2015",
    "distanceMi": 152,
    "durationMin": 125,
    "elevationGainFt": 1213,
    "startTime": "9:00 AM",
    "promoter": "Bike Monkey",
    "location": {
      "streetAddress": "1116 Stockton Street",
      "city": "San Joaquin",
      "state": "CA",
      "zip": "94887"
    },
    "distanceToEventMi": 195,
    "estimatedTravelTime": "1h",
    "flyerUrl": "http://www.ncnca.org/sites/default/files/01/01/2014%20-%202%3A29am/183%20San%20Bruno%20Mountain%20Hill%20Climb%20OKED%203.pdf",
    "registrationUrl": "https://www.usacycling.org/register/2014-183"
  },
  {
    "id": "evt-22177858",
    "discipline": "MTB",
    "type": "Cross Country Marathon",
    "name": "Mike's Bikes 42 nd Catâ€™ s Hill Classic ",
    "date": "May 2nd 2015",
    "distanceMi": 96,
    "durationMin": 6,
    "elevationGainFt": 226,
    "startTime": "8:00 AM",
    "promoter": "California Giant Cycling Team",
    "location": {
      "streetAddress": "640 Stockton Street",
      "city": "Salinas",
      "state": "CA",
      "zip": "98285"
    },
    "distanceToEventMi": 56,
    "estimatedTravelTime": "1h",
    "flyerUrl": "http://www.ncnca.org/sites/default/files/01/01/2014%20-%202%3A29am/183%20San%20Bruno%20Mountain%20Hill%20Climb%20OKED%203.pdf",
    "registrationUrl": "https://www.usacycling.org/register/2014-183"
  },
  {
    "id": "evt-83240738",
    "discipline": "Track",
    "type": "Sprint",
    "name": "Golden State Race Series",
    "date": "May 2nd 2015",
    "distanceMi": 45,
    "durationMin": 79,
    "elevationGainFt": 643,
    "startTime": "9:20 AM",
    "promoter": "Bicycles Plus",
    "location": {
      "streetAddress": "1928 New Montgomery Street",
      "city": "San Jacinto",
      "state": "CA",
      "zip": "96715"
    },
    "distanceToEventMi": 196,
    "estimatedTravelTime": "4h",
    "flyerUrl": "http://www.ncnca.org/sites/default/files/01/01/2014%20-%202%3A29am/183%20San%20Bruno%20Mountain%20Hill%20Climb%20OKED%203.pdf",
    "registrationUrl": "https://www.usacycling.org/register/2014-183"
  },
  {
    "id": "evt-98135113",
    "discipline": "MTB",
    "type": "Points Race",
    "name": "Salinas Criterium",
    "date": "May 3rd 2015",
    "distanceMi": 40,
    "durationMin": 137,
    "elevationGainFt": 170,
    "startTime": "8:30 AM",
    "promoter": "Bubba Melcher",
    "location": {
      "streetAddress": "675 Polk Street",
      "city": "San Joaquin",
      "state": "CA",
      "zip": "96899"
    },
    "distanceToEventMi": 178,
    "estimatedTravelTime": "5h",
    "flyerUrl": "http://www.ncnca.org/sites/default/files/01/01/2014%20-%202%3A29am/183%20San%20Bruno%20Mountain%20Hill%20Climb%20OKED%203.pdf",
    "registrationUrl": "https://www.usacycling.org/register/2014-183"
  },
  {
    "id": "evt-41308166",
    "discipline": "MTB",
    "type": "Super D",
    "name": "Calaveras Time Trial ",
    "date": "May 3rd 2015",
    "distanceMi": 197,
    "durationMin": 59,
    "elevationGainFt": 888,
    "startTime": "1:00 PM",
    "promoter": "AntiGravity Cycling",
    "location": {
      "streetAddress": "741 Montgomery Street",
      "city": "Sacramento",
      "state": "CA",
      "zip": "91131"
    },
    "distanceToEventMi": 89,
    "estimatedTravelTime": "3h",
    "flyerUrl": "http://www.ncnca.org/sites/default/files/01/01/2014%20-%202%3A29am/183%20San%20Bruno%20Mountain%20Hill%20Climb%20OKED%203.pdf",
    "registrationUrl": "https://www.usacycling.org/register/2014-183"
  },
  {
    "id": "evt-52624980",
    "discipline": "Road",
    "type": "Cyclocross",
    "name": "Tour of California Women's Edition ",
    "date": "May 8th 2015",
    "distanceMi": 1,
    "durationMin": 22,
    "elevationGainFt": 1187,
    "startTime": "12:03 PM",
    "promoter": "Bicycles Plus",
    "location": {
      "streetAddress": "1992 Stockton Street",
      "city": "San Bernardino",
      "state": "CA",
      "zip": "96875"
    },
    "distanceToEventMi": 143,
    "estimatedTravelTime": "1h",
    "flyerUrl": "http://www.ncnca.org/sites/default/files/01/01/2014%20-%202%3A29am/183%20San%20Bruno%20Mountain%20Hill%20Climb%20OKED%203.pdf",
    "registrationUrl": "https://www.usacycling.org/register/2014-183"
  },
  {
    "id": "evt-107794088",
    "discipline": "Clinic",
    "type": "Cyclocross",
    "name": "Honor Ride Lake Tahoe",
    "date": "May 8th 2015",
    "distanceMi": 118,
    "durationMin": 35,
    "elevationGainFt": 954,
    "startTime": "2:18 PM",
    "promoter": "Back of Nowhere Enterprises",
    "location": {
      "streetAddress": "1992 Castro Street",
      "city": "San Jose",
      "state": "CA",
      "zip": "94820"
    },
    "distanceToEventMi": 175,
    "estimatedTravelTime": "1h",
    "flyerUrl": "http://www.ncnca.org/sites/default/files/01/01/2014%20-%202%3A29am/183%20San%20Bruno%20Mountain%20Hill%20Climb%20OKED%203.pdf",
    "registrationUrl": "https://www.usacycling.org/register/2014-183"
  },
  {
    "id": "evt-71443204",
    "discipline": "Track",
    "type": "Cross Country Marathon",
    "name": "Berkeley Hills Road Race",
    "date": "May 9th 2015",
    "distanceMi": 62,
    "durationMin": 38,
    "elevationGainFt": 1516,
    "startTime": "2:18 PM",
    "promoter": "Bicycle Planet",
    "location": {
      "streetAddress": "1100 Haight Street",
      "city": "San Juan Capistrano",
      "state": "CA",
      "zip": "98307"
    },
    "distanceToEventMi": 109,
    "estimatedTravelTime": "4h",
    "flyerUrl": "http://www.ncnca.org/sites/default/files/01/01/2014%20-%202%3A29am/183%20San%20Bruno%20Mountain%20Hill%20Climb%20OKED%203.pdf",
    "registrationUrl": "https://www.usacycling.org/register/2014-183"
  },
  {
    "id": "evt-85391182",
    "discipline": "Track",
    "type": "Sprint",
    "name": "RED KITE OMNIUM EVENT #6 - RED KITE CRITERIUM (MAY)",
    "date": "May 10th 2015",
    "distanceMi": 159,
    "durationMin": 53,
    "elevationGainFt": 22,
    "startTime": "12:00 PM",
    "promoter": "AntiGravity Cycling",
    "location": {
      "streetAddress": "260 22nd Street",
      "city": "San Leandro",
      "state": "CA",
      "zip": "96689"
    },
    "distanceToEventMi": 55,
    "estimatedTravelTime": "1h",
    "flyerUrl": "http://www.ncnca.org/sites/default/files/01/01/2014%20-%202%3A29am/183%20San%20Bruno%20Mountain%20Hill%20Climb%20OKED%203.pdf",
    "registrationUrl": "https://www.usacycling.org/register/2014-183"
  },
  {
    "id": "evt-21962465",
    "discipline": "Clinic",
    "type": "Cyclocross",
    "name": "Mariposa Women's Stage Race ",
    "date": "May 15th 2015",
    "distanceMi": 155,
    "durationMin": 159,
    "elevationGainFt": 1395,
    "startTime": "12:03 PM",
    "promoter": "Brian Joder",
    "location": {
      "streetAddress": "1674 Great Highway",
      "city": "San Juan Capistrano",
      "state": "CA",
      "zip": "98694"
    },
    "distanceToEventMi": 4,
    "estimatedTravelTime": "1h",
    "flyerUrl": "http://www.ncnca.org/sites/default/files/01/01/2014%20-%202%3A29am/183%20San%20Bruno%20Mountain%20Hill%20Climb%20OKED%203.pdf",
    "registrationUrl": "https://www.usacycling.org/register/2014-183"
  },
  {
    "id": "evt-105624662",
    "discipline": "Road",
    "type": "Downhill",
    "name": "Death Valley Road Omnium",
    "date": "May 23rd 2015",
    "distanceMi": 77,
    "durationMin": 19,
    "elevationGainFt": 400,
    "startTime": "2:00 PM",
    "promoter": "China Peak Mountain Resort",
    "location": {
      "streetAddress": "1383 Skyline Boulevard",
      "city": "Ross",
      "state": "CA",
      "zip": "95754"
    },
    "distanceToEventMi": 126,
    "estimatedTravelTime": "5h",
    "flyerUrl": "http://www.ncnca.org/sites/default/files/01/01/2014%20-%202%3A29am/183%20San%20Bruno%20Mountain%20Hill%20Climb%20OKED%203.pdf",
    "registrationUrl": "https://www.usacycling.org/register/2014-183"
  },
  {
    "id": "evt-89573136",
    "discipline": "Track",
    "type": "Criterium",
    "name": "Folsom Classic Criterium",
    "date": "May 23rd 2015",
    "distanceMi": 25,
    "durationMin": 8,
    "elevationGainFt": 1641,
    "startTime": "2:00 PM",
    "promoter": "Cal Aggie Cycling",
    "location": {
      "streetAddress": "231 Broadway",
      "city": "San Fernando",
      "state": "CA",
      "zip": "99677"
    },
    "distanceToEventMi": 160,
    "estimatedTravelTime": "3h",
    "flyerUrl": "http://www.ncnca.org/sites/default/files/01/01/2014%20-%202%3A29am/183%20San%20Bruno%20Mountain%20Hill%20Climb%20OKED%203.pdf",
    "registrationUrl": "https://www.usacycling.org/register/2014-183"
  },
  {
    "id": "evt-38949767",
    "discipline": "Clinic",
    "type": "Road Race",
    "name": "Memorial Day Criterium",
    "date": "May 25th 2015",
    "distanceMi": 26,
    "durationMin": 177,
    "elevationGainFt": 429,
    "startTime": "10:15 AM",
    "promoter": "Cal Aggie Cycling",
    "location": {
      "streetAddress": "1637 Filbert Street",
      "city": "San Francisco",
      "state": "CA",
      "zip": "92895"
    },
    "distanceToEventMi": 2,
    "estimatedTravelTime": "2h",
    "flyerUrl": "http://www.ncnca.org/sites/default/files/01/01/2014%20-%202%3A29am/183%20San%20Bruno%20Mountain%20Hill%20Climb%20OKED%203.pdf",
    "registrationUrl": "https://www.usacycling.org/register/2014-183"
  },
  {
    "id": "evt-80206808",
    "discipline": "Clinic",
    "type": "Cyclocross",
    "name": "IC3 Dash for Cash",
    "date": "May 30th 2015",
    "distanceMi": 24,
    "durationMin": 120,
    "elevationGainFt": 59,
    "startTime": "10:15 AM",
    "promoter": "Berkeley Bicycle Club",
    "location": {
      "streetAddress": "1556 49-Mile Scenic Drive",
      "city": "San Joaquin",
      "state": "CA",
      "zip": "99923"
    },
    "distanceToEventMi": 152,
    "estimatedTravelTime": "2h",
    "flyerUrl": "http://www.ncnca.org/sites/default/files/01/01/2014%20-%202%3A29am/183%20San%20Bruno%20Mountain%20Hill%20Climb%20OKED%203.pdf",
    "registrationUrl": "https://www.usacycling.org/register/2014-183"
  },
  {
    "id": "evt-61002741",
    "discipline": "MTB",
    "type": "Road Race",
    "name": "RED KITE OMNIUM EVENT #7 - THE BUMP CIRCUIT RACE (SPRING)",
    "date": "May 31st 2015",
    "distanceMi": 70,
    "durationMin": 118,
    "elevationGainFt": 1368,
    "startTime": "9:00 AM",
    "promoter": "Bicycle Planet",
    "location": {
      "streetAddress": "1319 New Montgomery Street",
      "city": "San Fernando",
      "state": "CA",
      "zip": "97998"
    },
    "distanceToEventMi": 103,
    "estimatedTravelTime": "2h",
    "flyerUrl": "http://www.ncnca.org/sites/default/files/01/01/2014%20-%202%3A29am/183%20San%20Bruno%20Mountain%20Hill%20Climb%20OKED%203.pdf",
    "registrationUrl": "https://www.usacycling.org/register/2014-183"
  },
  {
    "id": "evt-45455496",
    "discipline": "Clinic",
    "type": "Short Track Cross Country",
    "name": "Pescadero Coastal Classic & Elite District Championship",
    "date": "June 6th 2015",
    "distanceMi": 59,
    "durationMin": 97,
    "elevationGainFt": 1332,
    "startTime": "1:55 PM",
    "promoter": "Bubba Melcher",
    "location": {
      "streetAddress": "1968 22nd Street",
      "city": "San Joaquin",
      "state": "CA",
      "zip": "91104"
    },
    "distanceToEventMi": 81,
    "estimatedTravelTime": "2h",
    "flyerUrl": "http://www.ncnca.org/sites/default/files/01/01/2014%20-%202%3A29am/183%20San%20Bruno%20Mountain%20Hill%20Climb%20OKED%203.pdf",
    "registrationUrl": "https://www.usacycling.org/register/2014-183"
  },
  {
    "id": "evt-45330541",
    "discipline": "MTB",
    "type": "Dual Slalom",
    "name": "RED KITE OMNIUM EVENT #8 - TRI-VALLEY CRITERIUM CLASSIC",
    "date": "June 20th 2015",
    "distanceMi": 181,
    "durationMin": 101,
    "elevationGainFt": 1837,
    "startTime": "12:00 PM",
    "promoter": "Cal Cycling",
    "location": {
      "streetAddress": "134 Howard Street",
      "city": "San Joaquin",
      "state": "CA",
      "zip": "96034"
    },
    "distanceToEventMi": 92,
    "estimatedTravelTime": "3h",
    "flyerUrl": "http://www.ncnca.org/sites/default/files/01/01/2014%20-%202%3A29am/183%20San%20Bruno%20Mountain%20Hill%20Climb%20OKED%203.pdf",
    "registrationUrl": "https://www.usacycling.org/register/2014-183"
  },
  {
    "id": "evt-92587095",
    "discipline": "Track",
    "type": "Dual Slalom",
    "name": "55th Annual Nevada City Bicycle Classic",
    "date": "June 21st 2015",
    "distanceMi": 42,
    "durationMin": 75,
    "elevationGainFt": 1184,
    "startTime": "1:55 PM",
    "promoter": "Cal Aggie Cycling",
    "location": {
      "streetAddress": "1484 Howard Street",
      "city": "San Bruno",
      "state": "CA",
      "zip": "92575"
    },
    "distanceToEventMi": 94,
    "estimatedTravelTime": "5h",
    "flyerUrl": "http://www.ncnca.org/sites/default/files/01/01/2014%20-%202%3A29am/183%20San%20Bruno%20Mountain%20Hill%20Climb%20OKED%203.pdf",
    "registrationUrl": "https://www.usacycling.org/register/2014-183"
  },
  {
    "id": "evt-42498628",
    "discipline": "Cyclocross",
    "type": "Super D",
    "name": "2015 USA Cycling Amateur Road Nationals",
    "date": "December 1st 2015",
    "distanceMi": 81,
    "durationMin": 52,
    "elevationGainFt": 1280,
    "startTime": "1:55 PM",
    "promoter": "CCCX (Central Coast Cyclocross)",
    "location": {
      "streetAddress": "10 Kearny Street",
      "city": "San Dimas",
      "state": "CA",
      "zip": "96594"
    },
    "distanceToEventMi": 46,
    "estimatedTravelTime": "1h",
    "flyerUrl": "http://www.ncnca.org/sites/default/files/01/01/2014%20-%202%3A29am/183%20San%20Bruno%20Mountain%20Hill%20Climb%20OKED%203.pdf",
    "registrationUrl": "https://www.usacycling.org/register/2014-183"
  },
  {
    "id": "evt-61702164",
    "discipline": "Road",
    "type": "Keirin",
    "name": "The Parnassus Investments Burlingame Criterium",
    "date": "June 28th 2015",
    "distanceMi": 76,
    "durationMin": 133,
    "elevationGainFt": 409,
    "startTime": "1:00 PM",
    "promoter": "Alta Alpina Cycling Club",
    "location": {
      "streetAddress": "1882 Castro Street",
      "city": "San Juan Capistrano",
      "state": "CA",
      "zip": "97999"
    },
    "distanceToEventMi": 71,
    "estimatedTravelTime": "3h",
    "flyerUrl": "http://www.ncnca.org/sites/default/files/01/01/2014%20-%202%3A29am/183%20San%20Bruno%20Mountain%20Hill%20Climb%20OKED%203.pdf",
    "registrationUrl": "https://www.usacycling.org/register/2014-183"
  },
  {
    "id": "evt-58487835",
    "discipline": "Cyclocross",
    "type": "Criterium",
    "name": "Davis Bike Club 4th of July Criterium",
    "date": "July 4th 2015",
    "distanceMi": 15,
    "durationMin": 115,
    "elevationGainFt": 1299,
    "startTime": "1:55 PM",
    "promoter": "China Peak Mountain Resort",
    "location": {
      "streetAddress": "634 Polk Street",
      "city": "San Joaquin",
      "state": "CA",
      "zip": "99309"
    },
    "distanceToEventMi": 38,
    "estimatedTravelTime": "5h",
    "flyerUrl": "http://www.ncnca.org/sites/default/files/01/01/2014%20-%202%3A29am/183%20San%20Bruno%20Mountain%20Hill%20Climb%20OKED%203.pdf",
    "registrationUrl": "https://www.usacycling.org/register/2014-183"
  },
  {
    "id": "evt-90542919",
    "discipline": "MTB",
    "type": "Criterium",
    "name": " Lodoga Road Race (Formerly Leesville)",
    "date": "July 5th 2015",
    "distanceMi": 40,
    "durationMin": 135,
    "elevationGainFt": 1336,
    "startTime": "9:00 AM",
    "promoter": "China Peak Mountain Resort",
    "location": {
      "streetAddress": "1067 Third Street",
      "city": "San Fernando",
      "state": "CA",
      "zip": "99832"
    },
    "distanceToEventMi": 150,
    "estimatedTravelTime": "1h",
    "flyerUrl": "http://www.ncnca.org/sites/default/files/01/01/2014%20-%202%3A29am/183%20San%20Bruno%20Mountain%20Hill%20Climb%20OKED%203.pdf",
    "registrationUrl": "https://www.usacycling.org/register/2014-183"
  },
  {
    "id": "evt-31452879",
    "discipline": "Road",
    "type": "Cyclocross",
    "name": "Northern CA/NV District Championships",
    "date": "July 11th 2015",
    "distanceMi": 185,
    "durationMin": 154,
    "elevationGainFt": 1452,
    "startTime": "12:00 PM",
    "promoter": "Bicycle Planet",
    "location": {
      "streetAddress": "876 Mission Street",
      "city": "San Francisco",
      "state": "CA",
      "zip": "98268"
    },
    "distanceToEventMi": 170,
    "estimatedTravelTime": "4h",
    "flyerUrl": "http://www.ncnca.org/sites/default/files/01/01/2014%20-%202%3A29am/183%20San%20Bruno%20Mountain%20Hill%20Climb%20OKED%203.pdf",
    "registrationUrl": "https://www.usacycling.org/register/2014-183"
  },
  {
    "id": "evt-103128015",
    "discipline": "Clinic",
    "type": "Cyclocross",
    "name": "RED KITE OMNIUM EVENT #9 - RED KITE CRITERIUM (JULY)",
    "date": "July 12th 2015",
    "distanceMi": 27,
    "durationMin": 59,
    "elevationGainFt": 55,
    "startTime": "9:00 AM",
    "promoter": "Back of Nowhere Enterprises",
    "location": {
      "streetAddress": "337 Union Street",
      "city": "San Anselmo",
      "state": "CA",
      "zip": "910936"
    },
    "distanceToEventMi": 110,
    "estimatedTravelTime": "3h",
    "flyerUrl": "http://www.ncnca.org/sites/default/files/01/01/2014%20-%202%3A29am/183%20San%20Bruno%20Mountain%20Hill%20Climb%20OKED%203.pdf",
    "registrationUrl": "https://www.usacycling.org/register/2014-183"
  },
  {
    "id": "evt-33197335",
    "discipline": "Clinic",
    "type": "Dual Slalom",
    "name": "San Rafael Twilight Criterium",
    "date": "July 25th 2015",
    "distanceMi": 169,
    "durationMin": 99,
    "elevationGainFt": 818,
    "startTime": "9:00 AM",
    "promoter": "Bubba Melcher",
    "location": {
      "streetAddress": "332 Great Highway",
      "city": "San Diego",
      "state": "CA",
      "zip": "98502"
    },
    "distanceToEventMi": 197,
    "estimatedTravelTime": "4h",
    "flyerUrl": "http://www.ncnca.org/sites/default/files/01/01/2014%20-%202%3A29am/183%20San%20Bruno%20Mountain%20Hill%20Climb%20OKED%203.pdf",
    "registrationUrl": "https://www.usacycling.org/register/2014-183"
  },
  {
    "id": "evt-88379196",
    "discipline": "Cyclocross",
    "type": "Time Trial",
    "name": "RED KITE OMNIUM EVENT #11 - 31st ANNUAL BERKELEY BICYCLE CLUB CRITERIU",
    "date": "July 26th 2015",
    "distanceMi": 13,
    "durationMin": 129,
    "elevationGainFt": 1774,
    "startTime": "1:55 PM",
    "promoter": "Back of Nowhere Enterprises",
    "location": {
      "streetAddress": "489 22nd Street",
      "city": "San Juan Capistrano",
      "state": "CA",
      "zip": "95197"
    },
    "distanceToEventMi": 67,
    "estimatedTravelTime": "3h",
    "flyerUrl": "http://www.ncnca.org/sites/default/files/01/01/2014%20-%202%3A29am/183%20San%20Bruno%20Mountain%20Hill%20Climb%20OKED%203.pdf",
    "registrationUrl": "https://www.usacycling.org/register/2014-183"
  },
  {
    "id": "evt-96660169",
    "discipline": "Road",
    "type": "Individual Pursuit",
    "name": "RED KITE OMNIUM EVENT #12 - RED KITE CRITERIUM (AUGUST)",
    "date": "August 9th 2015",
    "distanceMi": 76,
    "durationMin": 51,
    "elevationGainFt": 732,
    "startTime": "12:03 PM",
    "promoter": "Back of Nowhere Enterprises",
    "location": {
      "streetAddress": "971 Great Highway",
      "city": "San Leandro",
      "state": "CA",
      "zip": "94142"
    },
    "distanceToEventMi": 161,
    "estimatedTravelTime": "3h",
    "flyerUrl": "http://www.ncnca.org/sites/default/files/01/01/2014%20-%202%3A29am/183%20San%20Bruno%20Mountain%20Hill%20Climb%20OKED%203.pdf",
    "registrationUrl": "https://www.usacycling.org/register/2014-183"
  },
  {
    "id": "evt-10795459",
    "discipline": "Track",
    "type": "Road Race",
    "name": "Dunnigan Hills Road Race",
    "date": "August 15th 2015",
    "distanceMi": 184,
    "durationMin": 18,
    "elevationGainFt": 1161,
    "startTime": "2:00 PM",
    "promoter": "Bubba Melcher",
    "location": {
      "streetAddress": "1186 New Montgomery Street",
      "city": "San Diego",
      "state": "CA",
      "zip": "91598"
    },
    "distanceToEventMi": 68,
    "estimatedTravelTime": "3h",
    "flyerUrl": "http://www.ncnca.org/sites/default/files/01/01/2014%20-%202%3A29am/183%20San%20Bruno%20Mountain%20Hill%20Climb%20OKED%203.pdf",
    "registrationUrl": "https://www.usacycling.org/register/2014-183"
  },
  {
    "id": "evt-25805046",
    "discipline": "Road",
    "type": "Points Race",
    "name": "RED KITE OMNIUM EVENT #13 - TEMPUS FUGIT INDIVIDUAL TIME TRIAL (S",
    "date": "August 23rd 2015",
    "distanceMi": 137,
    "durationMin": 94,
    "elevationGainFt": 155,
    "startTime": "1:00 PM",
    "promoter": "Chico Corsa Cycling Club",
    "location": {
      "streetAddress": "790 Union Street",
      "city": "San Bruno",
      "state": "CA",
      "zip": "95855"
    },
    "distanceToEventMi": 88,
    "estimatedTravelTime": "4h",
    "flyerUrl": "http://www.ncnca.org/sites/default/files/01/01/2014%20-%202%3A29am/183%20San%20Bruno%20Mountain%20Hill%20Climb%20OKED%203.pdf",
    "registrationUrl": "https://www.usacycling.org/register/2014-183"
  },
  {
    "id": "evt-55264163",
    "discipline": "Track",
    "type": "Dual Slalom",
    "name": "University Road Race",
    "date": "August 23rd 2015",
    "distanceMi": 15,
    "durationMin": 154,
    "elevationGainFt": 641,
    "startTime": "8:30 AM",
    "promoter": "Alta Alpina Cycling Club",
    "location": {
      "streetAddress": "1023 Howard Street",
      "city": "San Francisco",
      "state": "CA",
      "zip": "91089"
    },
    "distanceToEventMi": 164,
    "estimatedTravelTime": "3h",
    "flyerUrl": "http://www.ncnca.org/sites/default/files/01/01/2014%20-%202%3A29am/183%20San%20Bruno%20Mountain%20Hill%20Climb%20OKED%203.pdf",
    "registrationUrl": "https://www.usacycling.org/register/2014-183"
  },
  {
    "id": "evt-55406725",
    "discipline": "Track",
    "type": "Individual Pursuit",
    "name": "Winters Road Race",
    "date": "August 29th 2015",
    "distanceMi": 57,
    "durationMin": 176,
    "elevationGainFt": 668,
    "startTime": "8:00 AM",
    "promoter": "Berkeley Bicycle Club",
    "location": {
      "streetAddress": "1059 22nd Street",
      "city": "St. Helena",
      "state": "CA",
      "zip": "93399"
    },
    "distanceToEventMi": 141,
    "estimatedTravelTime": "4h",
    "flyerUrl": "http://www.ncnca.org/sites/default/files/01/01/2014%20-%202%3A29am/183%20San%20Bruno%20Mountain%20Hill%20Climb%20OKED%203.pdf",
    "registrationUrl": "https://www.usacycling.org/register/2014-183"
  },
  {
    "id": "evt-65327060",
    "discipline": "Clinic",
    "type": "Scratch Race",
    "name": "Vacaville Gran Prix",
    "date": "August 30th 2015",
    "distanceMi": 178,
    "durationMin": 83,
    "elevationGainFt": 225,
    "startTime": "2:18 PM",
    "promoter": "Back of Nowhere Enterprises",
    "location": {
      "streetAddress": "495 Great Highway",
      "city": "San Bernardino",
      "state": "CA",
      "zip": "98573"
    },
    "distanceToEventMi": 131,
    "estimatedTravelTime": "1h",
    "flyerUrl": "http://www.ncnca.org/sites/default/files/01/01/2014%20-%202%3A29am/183%20San%20Bruno%20Mountain%20Hill%20Climb%20OKED%203.pdf",
    "registrationUrl": "https://www.usacycling.org/register/2014-183"
  },
  {
    "id": "evt-87339174",
    "discipline": "Clinic",
    "type": "Cross Country",
    "name": "RED KITE CHAMPIONSHIP WEEKEND - RED KITE OMNIUM AND NCNCA STATE CRITER",
    "date": "September 5th 2015",
    "distanceMi": 151,
    "durationMin": 24,
    "elevationGainFt": 715,
    "startTime": "12:00 PM",
    "promoter": "Alto Velo",
    "location": {
      "streetAddress": "1670 Howard Street",
      "city": "Ross",
      "state": "CA",
      "zip": "91096"
    },
    "distanceToEventMi": 51,
    "estimatedTravelTime": "3h",
    "flyerUrl": "http://www.ncnca.org/sites/default/files/01/01/2014%20-%202%3A29am/183%20San%20Bruno%20Mountain%20Hill%20Climb%20OKED%203.pdf",
    "registrationUrl": "https://www.usacycling.org/register/2014-183"
  },
  {
    "id": "evt-35611100",
    "discipline": "MTB",
    "type": "Cyclocross",
    "name": "Giro Di San Francisco",
    "date": "September 7th 2015",
    "distanceMi": 148,
    "durationMin": 110,
    "elevationGainFt": 824,
    "startTime": "12:00 PM",
    "promoter": "Chico Corsa Cycling Club",
    "location": {
      "streetAddress": "405 Great Highway",
      "city": "San Francisco",
      "state": "CA",
      "zip": "910199"
    },
    "distanceToEventMi": 106,
    "estimatedTravelTime": "5h",
    "flyerUrl": "http://www.ncnca.org/sites/default/files/01/01/2014%20-%202%3A29am/183%20San%20Bruno%20Mountain%20Hill%20Climb%20OKED%203.pdf",
    "registrationUrl": "https://www.usacycling.org/register/2014-183"
  },
  {
    "id": "evt-74080642",
    "discipline": "Track",
    "type": "Super D",
    "name": "52nd Mt. Tamalpais Hill Climb",
    "date": "September 12th 2015",
    "distanceMi": 108,
    "durationMin": 146,
    "elevationGainFt": 251,
    "startTime": "8:30 AM",
    "promoter": "Central Sierra Cyclists",
    "location": {
      "streetAddress": "801 Vermont Street",
      "city": "Sacramento",
      "state": "CA",
      "zip": "93671"
    },
    "distanceToEventMi": 97,
    "estimatedTravelTime": "5h",
    "flyerUrl": "http://www.ncnca.org/sites/default/files/01/01/2014%20-%202%3A29am/183%20San%20Bruno%20Mountain%20Hill%20Climb%20OKED%203.pdf",
    "registrationUrl": "https://www.usacycling.org/register/2014-183"
  },
  {
    "id": "evt-96505613",
    "discipline": "Cyclocross",
    "type": "Super D",
    "name": "Fremont Peak Hill CLimb",
    "date": "September 20th 2015",
    "distanceMi": 84,
    "durationMin": 156,
    "elevationGainFt": 1052,
    "startTime": "12:03 PM",
    "promoter": "China Peak Mountain Resort",
    "location": {
      "streetAddress": "1966 Mission Street",
      "city": "Sacramento",
      "state": "CA",
      "zip": "91080"
    },
    "distanceToEventMi": 89,
    "estimatedTravelTime": "5h",
    "flyerUrl": "http://www.ncnca.org/sites/default/files/01/01/2014%20-%202%3A29am/183%20San%20Bruno%20Mountain%20Hill%20Climb%20OKED%203.pdf",
    "registrationUrl": "https://www.usacycling.org/register/2014-183"
  },
  {
    "id": "evt-52465448",
    "discipline": "Road",
    "type": "Scratch Race",
    "name": "Oakland Grand Prix",
    "date": "September 20th 2015",
    "distanceMi": 158,
    "durationMin": 106,
    "elevationGainFt": 934,
    "startTime": "1:00 PM",
    "promoter": "Central Sierra Cyclists",
    "location": {
      "streetAddress": "348 The Embarcadero",
      "city": "San Joaquin",
      "state": "CA",
      "zip": "93159"
    },
    "distanceToEventMi": 114,
    "estimatedTravelTime": "1h",
    "flyerUrl": "http://www.ncnca.org/sites/default/files/01/01/2014%20-%202%3A29am/183%20San%20Bruno%20Mountain%20Hill%20Climb%20OKED%203.pdf",
    "registrationUrl": "https://www.usacycling.org/register/2014-183"
  },
  {
    "id": "evt-17529005",
    "discipline": "Track",
    "type": "Points Race",
    "name": "Henleyville Road Race",
    "date": "September 26th 2015",
    "distanceMi": 180,
    "durationMin": 104,
    "elevationGainFt": 1338,
    "startTime": "12:03 PM",
    "promoter": "CCCX (Central Coast Cyclocross)",
    "location": {
      "streetAddress": "1478 Octavia Boulevard",
      "city": "San Leandro",
      "state": "CA",
      "zip": "97950"
    },
    "distanceToEventMi": 35,
    "estimatedTravelTime": "5h",
    "flyerUrl": "http://www.ncnca.org/sites/default/files/01/01/2014%20-%202%3A29am/183%20San%20Bruno%20Mountain%20Hill%20Climb%20OKED%203.pdf",
    "registrationUrl": "https://www.usacycling.org/register/2014-183"
  },
  {
    "id": "evt-25125973",
    "discipline": "Road",
    "type": "Short Track Cross Country",
    "name": "Esparto Time Trial",
    "date": "September 27th 2015",
    "distanceMi": 135,
    "durationMin": 35,
    "elevationGainFt": 779,
    "startTime": "1:00 PM",
    "promoter": "Berkeley Bicycle Club",
    "location": {
      "streetAddress": "1962 The Embarcadero",
      "city": "San Juan Capistrano",
      "state": "CA",
      "zip": "95254"
    },
    "distanceToEventMi": 198,
    "estimatedTravelTime": "5h",
    "flyerUrl": "http://www.ncnca.org/sites/default/files/01/01/2014%20-%202%3A29am/183%20San%20Bruno%20Mountain%20Hill%20Climb%20OKED%203.pdf",
    "registrationUrl": "https://www.usacycling.org/register/2014-183"
  },
  {
    "id": "evt-17917398",
    "discipline": "Clinic",
    "type": "Dual Slalom",
    "name": "Crush Challenge presented by Amgen",
    "date": "October 10th 2015",
    "distanceMi": 140,
    "durationMin": 99,
    "elevationGainFt": 1846,
    "startTime": "8:30 AM",
    "promoter": "China Peak Mountain Resort",
    "location": {
      "streetAddress": "786 Skyline Boulevard",
      "city": "San Jacinto",
      "state": "CA",
      "zip": "98031"
    },
    "distanceToEventMi": 60,
    "estimatedTravelTime": "3h",
    "flyerUrl": "http://www.ncnca.org/sites/default/files/01/01/2014%20-%202%3A29am/183%20San%20Bruno%20Mountain%20Hill%20Climb%20OKED%203.pdf",
    "registrationUrl": "https://www.usacycling.org/register/2014-183"
  },
  {
    "id": "evt-54693708",
    "discipline": "Clinic",
    "type": "Sprint",
    "name": "Dylan's 2015 Ride ",
    "date": "October 11th 2015",
    "distanceMi": 69,
    "durationMin": 178,
    "elevationGainFt": 1950,
    "startTime": "10:15 AM",
    "promoter": "Alto Velo",
    "location": {
      "streetAddress": "719 Octavia Boulevard",
      "city": "San Juan Capistrano",
      "state": "CA",
      "zip": "98219"
    },
    "distanceToEventMi": 99,
    "estimatedTravelTime": "5h",
    "flyerUrl": "http://www.ncnca.org/sites/default/files/01/01/2014%20-%202%3A29am/183%20San%20Bruno%20Mountain%20Hill%20Climb%20OKED%203.pdf",
    "registrationUrl": "https://www.usacycling.org/register/2014-183"
  }
]
